[{
  "id": 1,
  "Cidade": "Fuzhai",
  "Latitude": "34.25389",
  "Longitude": "108.52222",
  "user": "Matthew Wallace"
}, {
  "id": 2,
  "Cidade": "Pangushan",
  "Latitude": "25.6428",
  "Longitude": "115.42234",
  "user": "Louis Marshall"
}, {
  "id": 3,
  "Cidade": "Xichangmen",
  "Latitude": "32.22417",
  "Longitude": "118.75807",
  "user": "Diana Lane"
}, {
  "id": 4,
  "Cidade": "Lüfeng",
  "Latitude": "29.85834",
  "Longitude": "105.97306",
  "user": "Adam Willis"
}, {
  "id": 5,
  "Cidade": "Vranje",
  "Latitude": "42.55139",
  "Longitude": "21.90028",
  "user": "Joyce Ford"
}, {
  "id": 6,
  "Cidade": "Sadská",
  "Latitude": "50.13596",
  "Longitude": "14.98633",
  "user": "Harold Carpenter"
}, {
  "id": 7,
  "Cidade": "Bandera",
  "Latitude": "-28.8884",
  "Longitude": "-62.266",
  "user": "Ashley Diaz"
}, {
  "id": 8,
  "Cidade": "Vĩnh Tường",
  "Latitude": "21.2165",
  "Longitude": "105.51249",
  "user": "Gregory Holmes"
}, {
  "id": 9,
  "Cidade": "Cherskiy",
  "Latitude": "68.75325",
  "Longitude": "161.33197",
  "user": "Sandra Ford"
}, {
  "id": 10,
  "Cidade": "Plessisville",
  "Latitude": "46.21856",
  "Longitude": "-71.76201",
  "user": "Russell Perez"
}, {
  "id": 11,
  "Cidade": "Baiyang",
  "Latitude": "33.17288",
  "Longitude": "105.78184",
  "user": "Alice Hansen"
}, {
  "id": 12,
  "Cidade": "Bangbayang Kaler",
  "Latitude": "-7.2096",
  "Longitude": "108.3383",
  "user": "Donna Marshall"
}, {
  "id": 13,
  "Cidade": "Ros’",
  "Latitude": "53.2858",
  "Longitude": "24.4128",
  "user": "Ashley Castillo"
}, {
  "id": 14,
  "Cidade": "Penápolis",
  "Latitude": "-21.41972",
  "Longitude": "-50.0775",
  "user": "Kenneth Sims"
}, {
  "id": 15,
  "Cidade": "Beihuaidian",
  "Latitude": "39.25854",
  "Longitude": "117.56378",
  "user": "Raymond Hill"
}, {
  "id": 16,
  "Cidade": "Ouyang",
  "Latitude": "26.42528",
  "Longitude": "109.22944",
  "user": "Steven Griffin"
}, {
  "id": 17,
  "Cidade": "Saint-Cloud",
  "State": "Île-de-France",
  "Latitude": "48.846",
  "Longitude": "2.2029",
  "user": "Debra Daniels"
}, {
  "id": 18,
  "Cidade": "Zijin",
  "Latitude": "28.92018",
  "Longitude": "89.53345",
  "user": "Virginia Ford"
}, {
  "id": 19,
  "Cidade": "Gangmei",
  "Latitude": "22.04389",
  "Longitude": "111.75114",
  "user": "Donald Howard"
}, {
  "id": 20,
  "Cidade": "Baixo Guandu",
  "Latitude": "-19.51889",
  "Longitude": "-41.01583",
  "user": "Karen Mccoy"
}, {
  "id": 21,
  "Cidade": "Sigma",
  "Latitude": "11.4214",
  "Longitude": "122.6662",
  "user": "Betty Clark"
}, {
  "id": 22,
  "Cidade": "Wādī al ‘Uyūn",
  "Latitude": "35.00119",
  "Longitude": "36.18683",
  "user": "Gerald Hawkins"
}, {
  "id": 23,
  "Cidade": "San Nicolas",
  "Latitude": "15.5841",
  "Longitude": "120.6765",
  "user": "Randy Green"
}, {
  "id": 24,
  "Cidade": "Dawuhan",
  "Latitude": "-7.60417",
  "Longitude": "109.0825",
  "user": "Shirley Hall"
}, {
  "id": 25,
  "Cidade": "Marco",
  "Latitude": "-3.12389",
  "Longitude": "-40.14667",
  "user": "Andrea Lawson"
}, {
  "id": 26,
  "Cidade": "Elele",
  "Latitude": "5.1009",
  "Longitude": "6.81411",
  "user": "David Ray"
}, {
  "id": 27,
  "Cidade": "La Esperanza",
  "State": "Guerrero",
  "Latitude": "18.042",
  "Longitude": "-100.9165",
  "user": "Tina Scott"
}, {
  "id": 28,
  "Cidade": "Anjirmuara",
  "Latitude": "-3.1973",
  "Longitude": "114.5667",
  "user": "Jonathan Stanley"
}, {
  "id": 29,
  "Cidade": "Shuangxing",
  "Latitude": "47.09077",
  "Longitude": "125.90642",
  "user": "Elizabeth Jackson"
}, {
  "id": 30,
  "Cidade": "Dulangan",
  "Latitude": "13.4685",
  "Longitude": "120.9803",
  "user": "Jacqueline Meyer"
}, {
  "id": 31,
  "Cidade": "Florencia",
  "Latitude": "22.14518",
  "Longitude": "-78.97764",
  "user": "Samuel Moreno"
}, {
  "id": 32,
  "Cidade": "Watthana Nakhon",
  "Latitude": "13.74462",
  "Longitude": "102.31863",
  "user": "Linda Gonzales"
}, {
  "id": 33,
  "Cidade": "Beijós",
  "State": "Viseu",
  "Latitude": "40.5",
  "Longitude": "-7.9667",
  "user": "Johnny Simmons"
}, {
  "id": 34,
  "Cidade": "Biaoxi",
  "Latitude": "27.85161",
  "Longitude": "119.49792",
  "user": "Heather Black"
}, {
  "id": 35,
  "Cidade": "Chantilly",
  "State": "Picardie",
  "Latitude": "49.1946",
  "Longitude": "2.4712",
  "user": "Paula Foster"
}, {
  "id": 36,
  "Cidade": "Villiers",
  "Latitude": "-27.03026",
  "Longitude": "28.60061",
  "user": "Joe Hayes"
}, {
  "id": 37,
  "Cidade": "Bourg-en-Bresse",
  "State": "Rhône-Alpes",
  "Latitude": "46.2057",
  "Longitude": "5.2258",
  "user": "Scott Fernandez"
}, {
  "id": 38,
  "Cidade": "Pouébo",
  "Latitude": "-20.4",
  "Longitude": "164.56667",
  "user": "Dorothy Franklin"
}, {
  "id": 39,
  "Cidade": "Ilmajoki",
  "Latitude": "62.73333",
  "Longitude": "22.56667",
  "user": "Mary Boyd"
}, {
  "id": 40,
  "Cidade": "Rancabuaya",
  "Latitude": "-7.5238",
  "Longitude": "107.4909",
  "user": "Robert Hall"
}, {
  "id": 41,
  "Cidade": "Dieppe",
  "State": "Haute-Normandie",
  "Latitude": "49.9333",
  "Longitude": "1.0833",
  "user": "Patricia Henry"
}, {
  "id": 42,
  "Cidade": "Changchi",
  "Latitude": "32.16377",
  "Longitude": "106.65814",
  "user": "Philip Johnston"
}, {
  "id": 43,
  "Cidade": "Conduaga",
  "Latitude": "8.862",
  "Longitude": "117.4893",
  "user": "Jeffrey Ray"
}, {
  "id": 44,
  "Cidade": "Angono",
  "Latitude": "14.5266",
  "Longitude": "121.1536",
  "user": "Gregory Lynch"
}, {
  "id": 45,
  "Cidade": "La Rochelle",
  "State": "Poitou-Charentes",
  "Latitude": "46.1667",
  "Longitude": "-1.15",
  "user": "Justin Price"
}, {
  "id": 46,
  "Cidade": "Vila Nova de Milfontes",
  "State": "Beja",
  "Latitude": "37.75",
  "Longitude": "-8.7667",
  "user": "Paul Reynolds"
}, {
  "id": 47,
  "Cidade": "Naranjito",
  "Latitude": "-2.16671",
  "Longitude": "-79.4654",
  "user": "Johnny Mitchell"
}, {
  "id": 48,
  "Cidade": "Dabagou",
  "Latitude": "46.06946",
  "Longitude": "121.91632",
  "user": "Heather Montgomery"
}, {
  "id": 49,
  "Cidade": "Usman’",
  "Latitude": "52.04662",
  "Longitude": "39.7288",
  "user": "Emily George"
}, {
  "id": 50,
  "Cidade": "Gavião",
  "State": "Portalegre",
  "Latitude": "39.4833",
  "Longitude": "-7.9667",
  "user": "Antonio Barnes"
}, {
  "id": 51,
  "Cidade": "Estrada",
  "State": "Braga",
  "Latitude": "41.5417",
  "Longitude": "-8.4958",
  "user": "Paul Bradley"
}, {
  "id": 52,
  "Cidade": "Kampot",
  "Latitude": "10.61041",
  "Longitude": "104.18145",
  "user": "Joan Rivera"
}, {
  "id": 53,
  "Cidade": "Krajan C Wonorejo",
  "Latitude": "-8.2901",
  "Longitude": "113.3862",
  "user": "Jonathan Mitchell"
}, {
  "id": 54,
  "Cidade": "Pribrezhnyy",
  "Latitude": "53.48662",
  "Longitude": "49.85836",
  "user": "Ronald Sims"
}, {
  "id": 55,
  "Cidade": "Kitale",
  "Latitude": "1.01572",
  "Longitude": "35.00622",
  "user": "Aaron Lawrence"
}, {
  "id": 56,
  "Cidade": "Stockholm",
  "State": "Stockholm",
  "Latitude": "59.3326",
  "Longitude": "18.0649",
  "user": "Victor Kennedy"
}, {
  "id": 57,
  "Cidade": "Yong’an",
  "Latitude": "31.63777",
  "Longitude": "119.63395",
  "user": "Amanda Russell"
}, {
  "id": 58,
  "Cidade": "Hongmei",
  "Latitude": "22.99378",
  "Longitude": "113.60372",
  "user": "Margaret Black"
}, {
  "id": 59,
  "Cidade": "Baishan",
  "Latitude": "41.93853",
  "Longitude": "126.41965",
  "user": "Alan Burke"
}, {
  "id": 60,
  "Cidade": "Harderwijk",
  "State": "Provincie Gelderland",
  "Latitude": "52.3417",
  "Longitude": "5.6208",
  "user": "Rose Bryant"
}, {
  "id": 61,
  "Cidade": "Al Karmil",
  "Latitude": "31.42301",
  "Longitude": "35.13278",
  "user": "Raymond Vasquez"
}, {
  "id": 62,
  "Cidade": "Gitega",
  "Latitude": "-3.4264",
  "Longitude": "29.9308",
  "user": "Shawn Davis"
}, {
  "id": 63,
  "Cidade": "Tegalgede Kulon",
  "Latitude": "-8.15454",
  "Longitude": "113.72249",
  "user": "Jerry Reed"
}, {
  "id": 64,
  "Cidade": "Rozivka",
  "Latitude": "46.93846",
  "Longitude": "35.77239",
  "user": "Timothy Austin"
}, {
  "id": 65,
  "Cidade": "Al Jīb",
  "Latitude": "31.85203",
  "Longitude": "35.18451",
  "user": "Terry Cooper"
}, {
  "id": 66,
  "Cidade": "Sumberrojokrajan",
  "Latitude": "-8.2441",
  "Longitude": "112.6227",
  "user": "Thomas Harvey"
}, {
  "id": 67,
  "Cidade": "Tangzhuang",
  "Latitude": "32.76916",
  "Longitude": "119.73807",
  "user": "Jose Campbell"
}, {
  "id": 68,
  "Cidade": "Skála",
  "Latitude": "36.85",
  "Longitude": "22.66667",
  "user": "Carl Diaz"
}, {
  "id": 69,
  "Cidade": "Mohelno",
  "Latitude": "49.11412",
  "Longitude": "16.19022",
  "user": "Virginia Reynolds"
}, {
  "id": 70,
  "Cidade": "Chơn Thành",
  "Latitude": "11.42821",
  "Longitude": "106.63536",
  "user": "James Elliott"
}, {
  "id": 71,
  "Cidade": "Khasavyurt",
  "Latitude": "43.2509",
  "Longitude": "46.58766",
  "user": "Randy Bradley"
}, {
  "id": 72,
  "Cidade": "Skomielna Czarna",
  "Latitude": "49.72709",
  "Longitude": "19.83633",
  "user": "Carolyn Cole"
}, {
  "id": 73,
  "Cidade": "Liulin",
  "Latitude": "34.58972",
  "Longitude": "103.50417",
  "user": "Lori Gutierrez"
}, {
  "id": 74,
  "Cidade": "Enhtal",
  "Latitude": "49.2475",
  "Longitude": "105.37361",
  "user": "Jeffrey Garrett"
}, {
  "id": 75,
  "Cidade": "Uwelini",
  "Latitude": "-5.4",
  "Longitude": "39.68333",
  "user": "Daniel Morris"
}, {
  "id": 76,
  "Cidade": "Turt",
  "Latitude": "51.50725",
  "Longitude": "100.66257",
  "user": "Wayne Patterson"
}, {
  "id": 77,
  "Cidade": "Quezalguaque",
  "Latitude": "12.50683",
  "Longitude": "-86.90292",
  "user": "Anthony Nguyen"
}, {
  "id": 78,
  "Cidade": "Maiwal",
  "Latitude": "-8.3246",
  "Longitude": "124.519",
  "user": "Harry Gardner"
}, {
  "id": 79,
  "Cidade": "eSikhawini",
  "Latitude": "-28.87097",
  "Longitude": "31.89961",
  "user": "Christina Kelley"
}, {
  "id": 80,
  "Cidade": "Stockholm",
  "State": "Stockholm",
  "Latitude": "59.3326",
  "Longitude": "18.0649",
  "user": "Theresa Tucker"
}, {
  "id": 81,
  "Cidade": "Rancho Nuevo",
  "State": "San Luis Potosi",
  "Latitude": "22.219",
  "Longitude": "-100.9254",
  "user": "Joe Nelson"
}, {
  "id": 82,
  "Cidade": "Xiaohebian",
  "Latitude": "27.72763",
  "Longitude": "103.99514",
  "user": "Ryan Russell"
}, {
  "id": 83,
  "Cidade": "Paris 07",
  "State": "Île-de-France",
  "Latitude": "48.8565",
  "Longitude": "2.321",
  "user": "Wanda Brooks"
}, {
  "id": 84,
  "Cidade": "Xiong’erzhai",
  "Latitude": "40.27796",
  "Longitude": "117.12416",
  "user": "Ann Howard"
}, {
  "id": 85,
  "Cidade": "Anjirserapat",
  "Latitude": "-3.0391",
  "Longitude": "114.3845",
  "user": "Ruth Coleman"
}, {
  "id": 86,
  "Cidade": "Banyo",
  "Latitude": "6.75",
  "Longitude": "11.81667",
  "user": "Marie Wells"
}, {
  "id": 87,
  "Cidade": "Akademgorodok",
  "Latitude": "54.8523",
  "Longitude": "83.106",
  "user": "Doris Marshall"
}, {
  "id": 88,
  "Cidade": "Gia Ray",
  "Latitude": "10.92615",
  "Longitude": "107.40172",
  "user": "Irene Austin"
}, {
  "id": 89,
  "Cidade": "Hassi Berkane",
  "Latitude": "34.83898",
  "Longitude": "-2.86699",
  "user": "Andrew Harris"
}, {
  "id": 90,
  "Cidade": "Karangpete",
  "Latitude": "-7.4287",
  "Longitude": "108.3966",
  "user": "Albert Martin"
}, {
  "id": 91,
  "Cidade": "Lebak",
  "Latitude": "-6.8882",
  "Longitude": "113.6541",
  "user": "Anne Hernandez"
}, {
  "id": 92,
  "Cidade": "Stefanavíkion",
  "Latitude": "39.46667",
  "Longitude": "22.73333",
  "user": "Mark Collins"
}, {
  "id": 93,
  "Cidade": "Chantal",
  "Latitude": "18.2011",
  "Longitude": "-73.88948",
  "user": "Maria Frazier"
}, {
  "id": 94,
  "Cidade": "Ipoh",
  "State": "Perak",
  "Latitude": "4.618",
  "Longitude": "101.115",
  "user": "Carol Simmons"
}, {
  "id": 95,
  "Cidade": "Chisong",
  "Latitude": "42.57996",
  "Longitude": "127.00562",
  "user": "Frank Knight"
}, {
  "id": 96,
  "Cidade": "Sitovo",
  "Latitude": "44.01667",
  "Longitude": "27.01667",
  "user": "Billy Henderson"
}, {
  "id": 97,
  "Cidade": "Balongmulyo",
  "Latitude": "-6.6806",
  "Longitude": "111.6014",
  "user": "Michael Webb"
}, {
  "id": 98,
  "Cidade": "Taroudant",
  "Latitude": "30.47028",
  "Longitude": "-8.87695",
  "user": "Terry Johnston"
}, {
  "id": 99,
  "Cidade": "Houston",
  "State": "Texas",
  "Latitude": "29.9319",
  "Longitude": "-95.6106",
  "user": "Lawrence Tucker"
}, {
  "id": 100,
  "Cidade": "Tuamese",
  "Latitude": "-10.2455",
  "Longitude": "123.8749",
  "user": "Raymond Berry"
}]